[
 {
   "id": "1",
   "locid": "352260",
   "name": "Clifton-on-Teme",
   "postcode": "WR6 6EW",
   "club": "Warley Wasps",
   "lat": "52.257011",
   "lon": "-2.443215",
   "type": "Soil"
 },
 {
   "id": "2",
   "locid": "310141",
   "name": "Drayton Manor",
   "postcode": "ST18 9AB",
   "club": "Warley Wasps",
   "lat": "52.745810",
   "lon": "-2.102677",
   "type": "Soil"
 },
 {
   "id": "3",
   "locid": "350055",
   "name": "Hobbs Hole",
   "postcode": "WS9 0LL",
   "club": "Warley Wasps",
   "lat": "52.610731",
   "lon": "-1.892456",
   "type": "Soil & Sand"
 },
 {
   "id": "4",
   "locid": "353829",
   "name": "Upton Court",
   "postcode": "SY8 4BB",
   "club": "Warley Wasps",
   "lat": "52.291538",
   "lon": "-2.661622",
   "type": "Soil"
 },
 {
   "id": "5",
   "locid": "324201",
   "name": "Woodside Fishery",
   "postcode": "DY14 0BX",
   "club": "Warley Wasps",
   "lat": "52.366949",
   "lon": "-2.513184",
   "type": "Soil"
 },
 {
   "id": "6",
   "locid": "352260",
   "name": "Highley",
   "postcode": "WV16 6NN",
   "club": "Warley Wasps",
   "lat": "52.443399",
   "lon": "-2.380147",
   "type": "Soil"
 },
 {
   "id": "7",
   "locid": "353722",
   "name": "Wolverley",
   "postcode": "DY10 3QE",
   "club": "Warley Wasps",
   "lat": "52.406593",
   "lon": "-2.247471",
   "type": "Soil"
 },
 {
   "id": "8",
   "locid": "310167",
   "name": "Upper Sapey",
   "postcode": "WR6 6EX",
   "club": "Warley Wasps",
   "lat": "52.269082",
   "lon": "-2.456628",
   "type": "Soil"
 }
]